[
    {
        "name": "Welcome to Oaxaca",
        "region": "Overview",
        "description": "Let's get you oriented. Here's the route between the two main airports, and our wedding venue. It's about a 90-minute drive between both airports and the Lodge at Marconi.",
        "coordinates": [-96.7253, 17.0605]
    },
    {
        "name": "Food",
        "region": "Overview",
        "description": "Oaxaca is known for its delicious food. We've loved eating our way through the city and trying new dishes.",
        "coordinates": [-96.7253, 17.0605]
    },{
        "name": "Activities",
        "region": "Overview",
        "description": "Oaxaca is known for its delicious food. We've loved eating our way through the city and trying new dishes.",
        "coordinates": [-96.7253, 17.0605]
    },
    {
        "name": "AMA Terraza",
        "region": "Food",
        "description": "Description",
        "coordinates": [-96.7239, 17.0629]
    },
    {
        "name": "Sabine Sabe",
        "region": "Food",
        "description": "Description",
        "coordinates": [-96.72311306196234, 17.060783912313934]
    },
    {
        "name": "Labo Fermento",
        "region": "Food",
        "description": "Description",
        "coordinates": [-96.72311306196234, 17.060783912313934]
    },
    {
        "name": "Tacos Chilangos",
        "region": "Food",
        "description": "Description",
        "coordinates": [-96.72311306196234, 17.060783912313934]
    },
    {
        "name": "Boulenc",
        "region": "Food",
        "description": "Description",
        "coordinates": [-96.72311306196234, 17.060783912313934]
    },
    {
        "name": "Prietos Taller",
        "region": "Activities",
        "description": "Description",
        "coordinates": [-96.72311306196234, 17.060783912313934]
    }

]
